latitude,longitude,name
50.72472304567012,-3.52767305512913,exeter
51.55534708426216,-1.7826107086301297,swindon
51.11133955147824,-0.18509721782474806,crawley
52.19453940770639,0.11873916541765052,cambridge
53.97770287483973,-1.0717360786412324,york
53.04520376854417,-2.97433918509081,wrexham
